[
  {
    "id": "biz_001",
    "name": "La Parrilla de Juan",
    "address": "Av. Corrientes 1234, CABA",
    "category": "restaurant",
    "lat": -34.6037,
    "lng": -58.3816,
    "tags": ["barato", "buena_atencion"],
    "phone": "+5411-4444-5555"
  },
  {
    "id": "biz_002",
    "name": "Café Tortoni",
    "address": "Av. de Mayo 825, CABA",
    "category": "cafe",
    "lat": -34.6095,
    "lng": -58.3806,
    "tags": ["buena_atencion"],
    "phone": "+5411-4342-4328"
  },
  {
    "id": "biz_003",
    "name": "Pizzería Güerrín",
    "address": "Av. Corrientes 1368, CABA",
    "category": "pizza",
    "lat": -34.6040,
    "lng": -58.3858,
    "tags": ["barato", "rapido"],
    "phone": "+5411-4371-8141"
  },
  {
    "id": "biz_004",
    "name": "Sarkis",
    "address": "Thames 1101, CABA",
    "category": "restaurant",
    "lat": -34.5930,
    "lng": -58.4260,
    "tags": ["apto_celiacos", "buena_atencion"],
    "phone": "+5411-4772-4911"
  },
  {
    "id": "biz_005",
    "name": "Artemisia",
    "address": "Costa Rica 5893, CABA",
    "category": "restaurant",
    "lat": -34.5805,
    "lng": -58.4320,
    "tags": ["apto_veganos", "apto_celiacos"],
    "phone": "+5411-4774-4442"
  },
  {
    "id": "biz_006",
    "name": "Freddo",
    "address": "Av. Callao 1591, CABA",
    "category": "icecream",
    "lat": -34.5960,
    "lng": -58.3925,
    "tags": ["apto_celiacos"],
    "phone": null
  },
  {
    "id": "biz_007",
    "name": "Kentucky",
    "address": "Av. Cabildo 1700, CABA",
    "category": "fastfood",
    "lat": -34.5620,
    "lng": -58.4575,
    "tags": ["barato", "rapido"],
    "phone": null
  },
  {
    "id": "biz_008",
    "name": "Panadería La Unión",
    "address": "Av. Rivadavia 5102, CABA",
    "category": "bakery",
    "lat": -34.6180,
    "lng": -58.4320,
    "tags": ["barato", "delivery"],
    "phone": "+5411-4901-2233"
  },
  {
    "id": "biz_009",
    "name": "La Birra Bar",
    "address": "Humboldt 1386, CABA",
    "category": "bar",
    "lat": -34.5890,
    "lng": -58.4290,
    "tags": ["buena_atencion"],
    "phone": "+5411-4833-6690"
  },
  {
    "id": "biz_010",
    "name": "Buenos Aires Verde",
    "address": "Gorriti 5657, CABA",
    "category": "restaurant",
    "lat": -34.5835,
    "lng": -58.4305,
    "tags": ["apto_veganos", "apto_celiacos", "buena_atencion"],
    "phone": "+5411-4775-9594"
  },
  {
    "id": "biz_011",
    "name": "El Cuartito",
    "address": "Talcahuano 937, CABA",
    "category": "pizza",
    "lat": -34.6010,
    "lng": -58.3845,
    "tags": ["barato", "rapido"],
    "phone": "+5411-4816-1758"
  },
  {
    "id": "biz_012",
    "name": "Oui Oui",
    "address": "Nicaragua 6068, CABA",
    "category": "cafe",
    "lat": -34.5790,
    "lng": -58.4350,
    "tags": ["buena_atencion", "delivery"],
    "phone": null
  },
  {
    "id": "biz_013",
    "name": "McDonald's Obelisco",
    "address": "Av. 9 de Julio 1100, CABA",
    "category": "fastfood",
    "lat": -34.6035,
    "lng": -58.3815,
    "tags": ["barato", "rapido", "delivery"],
    "phone": null
  },
  {
    "id": "biz_014",
    "name": "Proper",
    "address": "Av. de Mayo 722, CABA",
    "category": "bar",
    "lat": -34.6088,
    "lng": -58.3790,
    "tags": ["buena_atencion"],
    "phone": "+5411-5199-1101"
  },
  {
    "id": "biz_015",
    "name": "Hausbrot",
    "address": "Av. Scalabrini Ortiz 1399, CABA",
    "category": "bakery",
    "lat": -34.5925,
    "lng": -58.4210,
    "tags": ["apto_celiacos", "delivery"],
    "phone": "+5411-4831-0048"
  },
  {
    "id": "biz_016",
    "name": "Manolo",
    "address": "Bv. Marítimo P. Peralta Ramos 67, Mar del Plata, Buenos Aires",
    "category": "restaurant",
    "lat": -38.0023,
    "lng": -57.5375,
    "tags": ["buena_atencion"],
    "phone": "+54223-451-8800"
  },
  {
    "id": "biz_017",
    "name": "Alfonsina",
    "address": "Av. Patricio Peralta Ramos 153, Mar del Plata, Buenos Aires",
    "category": "restaurant",
    "lat": -38.0033,
    "lng": -57.5355,
    "tags": ["buena_atencion"],
    "phone": "+54223-486-2671"
  },
  {
    "id": "biz_018",
    "name": "Montecatini",
    "address": "San Martín 2381, Mar del Plata, Buenos Aires",
    "category": "restaurant",
    "lat": -38.0075,
    "lng": -57.5450,
    "tags": ["barato", "rapido"],
    "phone": "+54223-495-1005"
  },
  {
    "id": "biz_019",
    "name": "Tisiano",
    "address": "San Martín 2689, Mar del Plata, Buenos Aires",
    "category": "restaurant",
    "lat": -38.0055,
    "lng": -57.5465,
    "tags": ["buena_atencion", "apto_celiacos"],
    "phone": "+54223-451-2771"
  },
  {
    "id": "biz_020",
    "name": "La Fonte D'Oro",
    "address": "Rivadavia 2537, Mar del Plata, Buenos Aires",
    "category": "pizza",
    "lat": -38.0050,
    "lng": -57.5500,
    "tags": ["barato", "rapido"],
    "phone": "+54223-493-5306"
  },
  {
    "id": "biz_021",
    "name": "Helados Lucciano's",
    "address": "Rivadavia 2301, Mar del Plata, Buenos Aires",
    "category": "icecream",
    "lat": -38.0048,
    "lng": -57.5480,
    "tags": ["buena_atencion", "apto_celiacos"],
    "phone": null
  },
  {
    "id": "biz_022",
    "name": "Havanna Café",
    "address": "Av. Colón 1599, Mar del Plata, Buenos Aires",
    "category": "cafe",
    "lat": -38.0012,
    "lng": -57.5445,
    "tags": ["buena_atencion"],
    "phone": null
  },
  {
    "id": "biz_023",
    "name": "La Parrilla del Puerto",
    "address": "12 de Octubre 3301, Mar del Plata, Buenos Aires",
    "category": "restaurant",
    "lat": -38.0310,
    "lng": -57.5320,
    "tags": ["buena_atencion"],
    "phone": "+54223-489-1010"
  },
  {
    "id": "biz_024",
    "name": "Antares",
    "address": "Güemes 2861, Mar del Plata, Buenos Aires",
    "category": "bar",
    "lat": -37.9945,
    "lng": -57.5525,
    "tags": ["buena_atencion"],
    "phone": "+54223-492-9191"
  },
  {
    "id": "biz_025",
    "name": "Lo de Fede",
    "address": "Güemes 2965, Mar del Plata, Buenos Aires",
    "category": "fastfood",
    "lat": -37.9942,
    "lng": -57.5530,
    "tags": ["barato", "rapido", "delivery"],
    "phone": null
  },
  {
    "id": "biz_026",
    "name": "Sur Café",
    "address": "Av. Colón 1777, Mar del Plata, Buenos Aires",
    "category": "cafe",
    "lat": -38.0008,
    "lng": -57.5450,
    "tags": ["apto_veganos", "buena_atencion"],
    "phone": null
  },
  {
    "id": "biz_027",
    "name": "Panadería Don Luis",
    "address": "Catamarca 1502, Mar del Plata, Buenos Aires",
    "category": "bakery",
    "lat": -37.9985,
    "lng": -57.5510,
    "tags": ["barato", "delivery"],
    "phone": "+54223-474-3322"
  },
  {
    "id": "biz_028",
    "name": "Almacén de Pizzas",
    "address": "Córdoba 1725, Mar del Plata, Buenos Aires",
    "category": "pizza",
    "lat": -37.9990,
    "lng": -57.5490,
    "tags": ["delivery", "rapido"],
    "phone": "+54223-495-2200"
  },
  {
    "id": "biz_029",
    "name": "Verde Raíz",
    "address": "Rivadavia 3045, Mar del Plata, Buenos Aires",
    "category": "restaurant",
    "lat": -38.0060,
    "lng": -57.5520,
    "tags": ["apto_veganos", "apto_celiacos"],
    "phone": "+54223-491-8877"
  },
  {
    "id": "biz_030",
    "name": "El Palacio del Bife",
    "address": "Av. Colón 2137, Mar del Plata, Buenos Aires",
    "category": "restaurant",
    "lat": -38.0005,
    "lng": -57.5460,
    "tags": ["buena_atencion", "barato"],
    "phone": "+54223-474-5566"
  }
]
